[
  {
    "id": 1,
    "name": "台北運動中心",
    "address": "台北市信義區信義路五段1號",
    "lat": 25.0330,
    "lng": 121.5654,
    "min_spend": 100.0,
    "phone": "02-2345-6789",
    "description": "提供多種運動設施與課程，包含游泳池、健身房、羽球場等"
  },
  {
    "id": 2,
    "name": "陽光健身房",
    "address": "台北市大安區忠孝東路四段200號",
    "lat": 25.0414,
    "lng": 121.5533,
    "min_spend": 200.0,
    "phone": "02-2777-8888",
    "description": "24小時營業的現代化健身房，設備齊全"
  },
  {
    "id": 3,
    "name": "游泳俱樂部",
    "address": "台北市中山區南京東路三段100號",
    "lat": 25.0520,
    "lng": 121.5440,
    "min_spend": 150.0,
    "phone": "02-2500-1234",
    "description": "專業游泳教學與訓練，適合各年齡層"
  },
  {
    "id": 4,
    "name": "羽球館",
    "address": "台北市松山區八德路四段200號",
    "lat": 25.0480,
    "lng": 121.5570,
    "min_spend": 300.0,
    "phone": "02-2766-7890",
    "description": "專業羽球場地租借，提供教練指導服務"
  },
  {
    "id": 5,
    "name": "網球場",
    "address": "台北市內湖區內湖路一段200號",
    "lat": 25.0790,
    "lng": 121.5650,
    "min_spend": 250.0,
    "phone": "02-2799-5678",
    "description": "戶外網球場地，環境優美"
  },
  {
    "id": 6,
    "name": "籃球場",
    "address": "台北市萬華區西寧南路100號",
    "lat": 25.0430,
    "lng": 121.5030,
    "min_spend": 180.0,
    "phone": "02-2388-9999",
    "description": "室內籃球場，提供場地租借服務"
  },
  {
    "id": 7,
    "name": "桌球館",
    "address": "台北市士林區中正路200號",
    "lat": 25.0920,
    "lng": 121.5240,
    "min_spend": 120.0,
    "phone": "02-2888-7777",
    "description": "專業桌球場地，設備完善"
  },
  {
    "id": 8,
    "name": "攀岩館",
    "address": "台北市南港區南港路一段200號",
    "lat": 25.0560,
    "lng": 121.6070,
    "min_spend": 350.0,
    "phone": "02-2788-6666",
    "description": "室內攀岩場，提供安全設備與教練指導"
  },
  {
    "id": 9,
    "name": "瑜珈教室",
    "address": "台北市文山區木柵路一段200號",
    "lat": 24.9980,
    "lng": 121.5700,
    "min_spend": 280.0,
    "phone": "02-2939-5555",
    "description": "專業瑜珈課程，適合初學者與進階者"
  },
  {
    "id": 10,
    "name": "有氧舞蹈教室",
    "address": "台北市北投區石牌路一段200號",
    "lat": 25.1150,
    "lng": 121.5150,
    "min_spend": 220.0,
    "phone": "02-2828-4444",
    "description": "多種有氧舞蹈課程，氣氛活潑"
  }
]

